City,Lat,Lng,Max Temp,Humidity,Cloudiness,Wind Speed,Country,Date
upernavik,72.79,-56.15,46.63399999999999,68.0,100.0,6.46,GL,08-18-2020
port alfred,-33.59,26.89,54.733999999999995,69.0,100.0,14.07,ZA,08-18-2020
crotone,39.09,17.12,79.43000000000004,53.0,11.0,3.24,IT,08-18-2020
komsomolskiy,40.43,71.72,66.2,68.0,45.0,2.1,UZ,08-18-2020
kruisfontein,-34.0,24.73,48.90200000000008,79.0,79.0,8.67,ZA,08-18-2020
rikitea,-23.12,-134.97,71.96000000000008,79.0,0.0,4.6,PF,08-18-2020
busselton,-33.65,115.33,39.992,78.0,15.0,1.46,AU,08-18-2020
miri,4.41,114.01,77.0,94.0,40.0,2.1,MY,08-18-2020
avarua,-21.21,-159.78,75.2,73.0,74.0,8.2,CK,08-18-2020
khatanga,71.97,102.5,49.31600000000001,67.0,35.0,6.61,RU,08-18-2020
storforshei,66.4,14.52,48.00200000000008,94.0,83.0,0.61,NO,08-18-2020
cabo san lucas,22.89,-109.91,87.00800000000001,58.0,40.0,5.1,MX,08-18-2020
tasiilaq,65.61,-37.64,46.4,75.0,51.0,3.1,GL,08-18-2020
saint-philippe,-21.36,55.77,64.4,77.0,20.0,2.1,RE,08-18-2020
chiredzi,-21.05,31.67,67.1,70.0,0.0,1.56,ZW,08-18-2020
husavik,66.04,-17.34,50.0,81.0,90.0,5.7,IS,08-18-2020
mataura,-46.19,168.86,50.14400000000008,74.0,100.0,2.5,NZ,08-18-2020
yellowknife,62.46,-114.35,64.4,77.0,75.0,4.1,CA,08-18-2020
isangel,-19.55,169.27,75.2,69.0,20.0,1.5,VU,08-18-2020
punta arenas,-53.15,-70.92,33.8,64.0,40.0,6.7,CL,08-18-2020
torbay,47.67,-52.73,57.00200000000008,93.0,90.0,11.3,CA,08-18-2020
vaini,-21.2,-175.2,73.4,94.0,90.0,5.1,TO,08-18-2020
agirish,61.92,63.02,52.43000000000004,98.0,93.0,2.86,RU,08-18-2020
cape town,-33.93,18.42,53.00600000000003,75.0,40.0,1.5,ZA,08-18-2020
kamyaran,34.8,46.94,78.8,27.0,0.0,2.1,IR,08-18-2020
hermanus,-34.42,19.23,42.008,93.0,65.0,0.89,ZA,08-18-2020
port elizabeth,-33.92,25.57,51.8,87.0,75.0,5.7,ZA,08-18-2020
albany,42.6,-73.97,75.00200000000008,45.0,8.0,3.2,US,08-18-2020
souillac,-20.52,57.52,71.6,73.0,40.0,6.7,MU,08-18-2020
mabay,6.06,124.47,80.20400000000005,70.0,79.0,1.38,PH,08-18-2020
amahai,-3.33,128.92,77.108,79.0,83.0,0.85,ID,08-18-2020
socota,6.04,-72.64,59.9,77.0,95.0,1.19,CO,08-18-2020
elizabeth city,36.29,-76.25,82.4,74.0,40.0,3.6,US,08-18-2020
sao filipe,14.9,-24.5,79.12400000000001,85.0,37.0,2.06,CV,08-18-2020
muli,2.92,73.57,82.184,67.0,82.0,1.57,MV,08-18-2020
payo,-3.75,103.64,72.62600000000009,89.0,69.0,0.81,ID,08-18-2020
evensk,61.95,159.23,49.13600000000007,89.0,100.0,2.4,RU,08-18-2020
jiayuguan,39.82,98.3,61.97000000000006,30.0,0.0,1.02,CN,08-18-2020
kahului,20.89,-156.47,89.6,46.0,40.0,10.3,US,08-18-2020
kapaa,22.08,-159.32,86.0,62.0,20.0,6.2,US,08-18-2020
fortuna,40.6,-124.16,73.00400000000005,66.0,89.0,1.34,US,08-18-2020
bengkulu,-3.8,102.27,76.06400000000004,84.0,56.0,2.39,ID,08-18-2020
port blair,11.67,92.75,82.22000000000006,79.0,100.0,6.66,IN,08-18-2020
agen,44.2,0.63,71.99600000000005,77.0,39.0,1.5,FR,08-18-2020
new norfolk,-42.78,147.06,42.008,85.0,33.0,1.59,AU,08-18-2020
mount isa,-20.73,139.5,62.6,42.0,2.0,0.5,AU,08-18-2020
paamiut,61.99,-49.67,47.12000000000006,71.0,0.0,1.64,GL,08-18-2020
ushuaia,-54.8,-68.3,32.0,91.0,40.0,10.8,AR,08-18-2020
lagoa,39.05,-27.98,71.51000000000008,92.0,37.0,10.86,PT,08-18-2020
bethel,41.37,-73.41,80.99600000000005,39.0,1.0,3.1,US,08-18-2020
junagarh,19.87,82.93,74.71400000000003,89.0,100.0,2.52,IN,08-18-2020
ossora,59.24,163.07,60.26000000000008,69.0,100.0,5.82,RU,08-18-2020
hasaki,35.73,140.83,82.00400000000005,88.0,75.0,2.1,JP,08-18-2020
thompson,55.74,-97.86,69.8,60.0,90.0,1.5,CA,08-18-2020
laupheim,48.23,9.88,60.8,72.0,75.0,2.6,DE,08-18-2020
iquique,-20.22,-70.14,62.6,59.0,40.0,5.7,CL,08-18-2020
clyde river,70.47,-68.59,55.4,71.0,75.0,3.1,CA,08-18-2020
lavrentiya,65.58,-171.0,53.024000000000015,69.0,99.0,1.81,RU,08-18-2020
gushikawa,26.35,127.87,82.4,88.0,1.0,2.1,JP,08-18-2020
castro,-24.79,-50.01,60.40400000000005,93.0,100.0,4.21,BR,08-18-2020
kununurra,-15.77,128.73,69.8,61.0,4.0,2.08,AU,08-18-2020
bakchar,57.02,82.07,53.18600000000007,96.0,67.0,3.13,RU,08-18-2020
beckley,37.78,-81.19,77.0,50.0,75.0,2.6,US,08-18-2020
vila velha,-20.33,-40.29,78.00800000000001,78.0,20.0,4.6,BR,08-18-2020
tlaxco,19.62,-98.12,73.4,33.0,40.0,3.1,MX,08-18-2020
kalmunai,7.42,81.82,78.38600000000007,83.0,99.0,1.63,LK,08-18-2020
puerto ayora,-0.74,-90.35,68.0,92.0,89.0,3.13,EC,08-18-2020
touros,-5.2,-35.46,75.2,88.0,40.0,3.1,BR,08-18-2020
oktyabrskiy,54.48,53.47,46.22000000000006,90.0,39.0,3.98,RU,08-18-2020
hobart,-42.88,147.33,44.00600000000003,87.0,75.0,4.1,AU,08-18-2020
narsaq,60.92,-46.05,57.2,47.0,0.0,3.1,GL,08-18-2020
grand gaube,-20.01,57.66,71.00600000000003,69.0,0.0,3.13,MU,08-18-2020
dikson,73.51,80.55,53.582000000000015,70.0,1.0,3.33,RU,08-18-2020
mapiripan,2.89,-72.13,77.0,90.0,92.0,1.66,CO,08-18-2020
sabang,5.89,95.32,82.31000000000009,75.0,80.0,3.25,ID,08-18-2020
ribeira grande,38.52,-28.7,73.07600000000009,91.0,54.0,10.31,PT,08-18-2020
quesnel,53.0,-122.5,71.6,53.0,75.0,4.6,CA,08-18-2020
faanui,-16.48,-151.75,77.95400000000005,77.0,1.0,9.27,PF,08-18-2020
ostrovnoy,68.05,39.51,44.67200000000004,78.0,0.0,3.44,RU,08-18-2020
arman,59.7,150.17,50.68399999999999,89.0,100.0,3.86,RU,08-18-2020
guerrero negro,27.98,-114.06,88.73600000000008,40.0,0.0,7.06,MX,08-18-2020
medea,36.26,2.75,77.0,73.0,49.0,3.1,DZ,08-18-2020
ayan,56.45,138.17,52.05200000000008,81.0,100.0,5.35,RU,08-18-2020
poum,-20.23,164.02,69.76400000000004,67.0,13.0,3.46,NC,08-18-2020
belmonte,-15.86,-38.88,73.4,78.0,90.0,2.6,BR,08-18-2020
berea,41.37,-81.85,73.99400000000007,49.0,20.0,4.6,US,08-18-2020
saskylakh,71.92,114.08,42.40400000000005,82.0,100.0,5.51,RU,08-18-2020
bambous virieux,-20.34,57.76,71.99600000000005,73.0,40.0,6.7,MU,08-18-2020
atuona,-9.8,-139.03,78.566,76.0,1.0,9.45,PF,08-18-2020
ovsyanka,55.96,92.55,57.2,93.0,97.0,1.29,RU,08-18-2020
tura,25.52,90.22,74.10200000000007,94.0,28.0,1.68,IN,08-18-2020
nsanje,-16.92,35.26,73.92200000000004,53.0,10.0,0.88,MW,08-18-2020
manokwari,-0.87,134.08,81.19400000000007,71.0,100.0,1.4,ID,08-18-2020
bafoulabe,13.81,-10.83,77.342,92.0,100.0,2.7,ML,08-18-2020
berlevag,70.86,29.09,50.0,81.0,75.0,3.1,NO,08-18-2020
yar-sale,66.83,70.83,54.788000000000046,82.0,94.0,5.75,RU,08-18-2020
tabalosos,-6.35,-76.68,93.2,49.0,20.0,3.6,PE,08-18-2020
serenje,-13.23,30.24,59.846000000000046,45.0,0.0,1.97,ZM,08-18-2020
iqaluit,63.75,-68.51,44.6,81.0,75.0,8.2,CA,08-18-2020
qaanaaq,77.48,-69.36,43.97000000000006,85.0,100.0,4.19,GL,08-18-2020
ponta delgada,37.73,-25.67,75.2,94.0,75.0,10.8,PT,08-18-2020
port hardy,50.7,-127.42,66.2,63.0,75.0,2.1,CA,08-18-2020
pangnirtung,66.15,-65.71,69.8,52.0,75.0,3.6,CA,08-18-2020
atasu,48.68,71.64,61.71800000000009,47.0,70.0,6.11,KZ,08-18-2020
salamanca,40.83,-6.0,66.00200000000008,77.0,20.0,1.5,ES,08-18-2020
marabba,12.35,32.18,73.63399999999999,91.0,75.0,4.26,SD,08-18-2020
lompoc,34.64,-120.46,84.99199999999999,54.0,1.0,5.1,US,08-18-2020
mehamn,71.04,27.85,50.0,81.0,75.0,3.1,NO,08-18-2020
comodoro rivadavia,-45.87,-67.5,41.0,44.0,6.0,5.7,AR,08-18-2020
salalah,17.02,54.09,77.0,100.0,90.0,1.5,OM,08-18-2020
sitka,57.05,-135.33,57.2,82.0,75.0,4.6,US,08-18-2020
gizo,-8.1,156.84,81.93200000000002,78.0,81.0,3.51,SB,08-18-2020
svetlyy,54.67,20.13,64.4,72.0,2.0,4.0,RU,08-18-2020
lorengau,-2.02,147.27,83.15600000000003,77.0,49.0,3.62,PG,08-18-2020
norman wells,65.28,-126.83,60.8,67.0,75.0,3.1,CA,08-18-2020
fuente palmera,37.7,-5.1,87.8,33.0,61.0,2.1,ES,08-18-2020
hithadhoo,-0.6,73.08,83.82200000000003,75.0,8.0,4.47,MV,08-18-2020
ancud,-41.87,-73.82,42.998000000000026,80.0,20.0,2.1,CL,08-18-2020
mardin,37.31,40.74,71.74400000000007,22.0,0.0,1.76,TR,08-18-2020
lebu,-37.62,-73.65,46.79600000000005,75.0,51.0,5.67,CL,08-18-2020
baracoa,20.35,-74.5,82.56200000000005,79.0,77.0,2.45,CU,08-18-2020
muros,42.78,-9.06,68.0,92.0,100.0,7.15,ES,08-18-2020
necochea,-38.55,-58.74,39.992,44.0,60.0,2.68,AR,08-18-2020
port hedland,-20.32,118.57,57.2,47.0,10.0,3.1,AU,08-18-2020
bitung,1.45,125.18,75.2,78.0,20.0,0.5,ID,08-18-2020
san pedro,14.35,121.02,78.99800000000002,94.0,92.0,0.11,PH,08-18-2020
tabou,4.42,-7.35,75.02000000000007,88.0,65.0,3.96,CI,08-18-2020
buin,-33.73,-70.75,50.0,66.0,90.0,1.5,CL,08-18-2020
college,64.86,-147.8,71.99600000000005,40.0,40.0,1.5,US,08-18-2020
kirakira,-10.45,161.92,84.07400000000001,74.0,63.0,3.73,SB,08-18-2020
slave lake,55.28,-114.77,86.0,37.0,1.0,5.1,CA,08-18-2020
san patricio,19.22,-104.7,77.0,100.0,90.0,2.6,MX,08-18-2020
baoying,33.23,119.31,79.19600000000005,88.0,0.0,2.97,CN,08-18-2020
bluff,-46.6,168.33,49.33399999999999,77.0,100.0,4.86,NZ,08-18-2020
naze,28.37,129.48,84.2,94.0,20.0,2.1,JP,08-18-2020
san quintin,30.48,-115.95,82.27400000000002,58.0,3.0,3.58,MX,08-18-2020
barrow,71.29,-156.79,53.6,76.0,20.0,6.2,US,08-18-2020
churapcha,62.0,132.43,54.5,43.0,29.0,3.42,RU,08-18-2020
hanyang,32.14,105.51,60.008,94.0,100.0,0.45,CN,08-18-2020
sambava,-14.27,50.17,66.90200000000007,85.0,6.0,4.43,MG,08-18-2020
taketa,32.97,131.38,71.99600000000005,88.0,70.0,0.61,JP,08-18-2020
hay river,60.82,-115.8,69.8,73.0,75.0,4.1,CA,08-18-2020
paracuru,-3.41,-39.03,78.99800000000002,77.0,1.0,8.05,BR,08-18-2020
kavieng,-2.57,150.8,83.35400000000006,73.0,1.0,3.98,PG,08-18-2020
ust-maya,60.42,134.53,54.158,63.0,68.0,0.84,RU,08-18-2020
eureka,40.8,-124.16,71.00600000000003,39.0,89.0,3.71,US,08-18-2020
najran,17.49,44.13,89.6,21.0,75.0,1.53,SA,08-18-2020
rio claro,-22.41,-47.56,71.00600000000003,77.0,62.0,3.1,BR,08-18-2020
moanda,-1.56,13.22,73.63399999999999,82.0,100.0,1.28,GA,08-18-2020
kapit,2.02,112.93,73.38200000000002,94.0,100.0,0.61,MY,08-18-2020
mercedes,-34.65,-59.43,55.99400000000007,50.0,1.0,0.45,AR,08-18-2020
maragogi,-9.01,-35.22,73.65200000000007,80.0,79.0,5.05,BR,08-18-2020
egvekinot,66.32,-179.17,51.26000000000008,65.0,5.0,1.57,RU,08-18-2020
rosarito,32.33,-117.03,91.4,43.0,5.0,2.1,MX,08-18-2020
chapais,49.78,-74.85,60.8,67.0,90.0,2.6,CA,08-18-2020
qaqortoq,60.72,-46.03,57.2,47.0,0.0,3.1,GL,08-18-2020
eyl,7.98,49.82,77.93600000000006,76.0,54.0,11.29,SO,08-18-2020
karratha,-20.74,116.85,63.68000000000004,38.0,57.0,6.07,AU,08-18-2020
ahuimanu,21.44,-157.84,86.0,58.0,40.0,6.7,US,08-18-2020
butaritari,3.07,172.79,83.44400000000007,70.0,1.0,4.84,KI,08-18-2020
saldanha,-33.01,17.94,44.6,75.0,76.0,1.5,ZA,08-18-2020
llangefni,53.26,-4.31,62.6,93.0,1.0,6.2,GB,08-18-2020
ponta do sol,32.67,-17.1,71.6,73.0,20.0,0.65,PT,08-18-2020
mindszent,46.52,20.19,66.00200000000008,96.0,100.0,4.32,HU,08-18-2020
krasnogorodsk,56.83,28.28,55.022000000000034,74.0,86.0,2.04,RU,08-18-2020
biak,-0.91,122.88,75.542,74.0,96.0,2.96,ID,08-18-2020
belle glade,26.68,-80.67,89.00600000000003,72.0,64.0,0.45,US,08-18-2020
cherskiy,68.75,161.3,43.016000000000005,91.0,99.0,2.99,RU,08-18-2020
waipawa,-41.41,175.52,57.2,67.0,100.0,3.6,NZ,08-18-2020
pathein,16.78,94.73,77.37800000000007,91.0,100.0,2.89,MM,08-18-2020
east london,-33.02,27.91,54.878000000000064,62.0,91.0,14.31,ZA,08-18-2020
wajir,1.75,40.06,74.408,76.0,44.0,7.53,KE,08-18-2020
bud,39.45,-86.18,77.0,60.0,40.0,3.6,US,08-18-2020
kobryn,52.21,24.36,66.2,88.0,90.0,1.99,BY,08-18-2020
flinders,-34.58,150.86,62.99600000000005,78.0,0.0,3.13,AU,08-18-2020
grindavik,63.84,-22.43,51.8,93.0,75.0,4.1,IS,08-18-2020
chishtian mandi,29.8,72.87,96.17000000000006,45.0,5.0,4.72,PK,08-18-2020
upata,8.01,-62.4,82.99400000000007,83.0,100.0,1.79,VE,08-18-2020
juneau,58.3,-134.42,59.0,93.0,90.0,2.51,US,08-18-2020
longyearbyen,78.22,15.64,42.8,75.0,75.0,8.7,SJ,08-18-2020
varnavino,57.4,45.09,44.07800000000007,84.0,5.0,2.68,RU,08-18-2020
georgetown,5.41,100.34,80.6,94.0,20.0,1.0,MY,08-18-2020
malindi,-3.22,40.12,76.67600000000009,77.0,100.0,6.93,KE,08-18-2020
miramar,25.99,-80.23,91.4,55.0,20.0,3.1,US,08-18-2020
praia da vitoria,38.73,-27.07,75.2,94.0,75.0,7.29,PT,08-18-2020
seoul,37.57,126.98,77.0,88.0,90.0,1.07,KR,08-18-2020
hilo,19.73,-155.09,82.4,65.0,90.0,3.18,US,08-18-2020
padang,-0.95,100.35,77.52200000000003,74.0,81.0,1.87,ID,08-18-2020
nikolskoye,59.7,30.79,53.99600000000005,76.0,18.0,2.0,RU,08-18-2020
uni,57.75,51.49,41.97200000000004,85.0,0.0,4.91,RU,08-18-2020
port macquarie,-31.43,152.92,57.992,80.0,0.0,3.39,AU,08-18-2020
mar del plata,-38.0,-57.56,46.4,65.0,98.0,4.1,AR,08-18-2020
yulara,-25.24,130.99,42.8,52.0,0.0,2.6,AU,08-18-2020
pyay,18.82,95.22,73.4,96.0,100.0,4.62,MM,08-18-2020
samarai,-10.62,150.67,75.84800000000003,63.0,100.0,3.26,PG,08-18-2020
north platte,41.12,-100.77,95.0,30.0,1.0,4.1,US,08-18-2020
carnarvon,-24.87,113.63,55.4,87.0,22.0,4.6,AU,08-18-2020
subotica,46.1,19.67,65.96600000000001,90.0,100.0,2.79,RS,08-18-2020
kamenka,51.32,42.77,60.008,77.0,6.0,2.59,RU,08-18-2020
cidreira,-30.18,-50.21,62.18600000000007,96.0,100.0,4.89,BR,08-18-2020
sept-iles,50.2,-66.38,60.8,93.0,90.0,2.6,CA,08-18-2020
maceio,-9.67,-35.74,71.6,88.0,40.0,3.1,BR,08-18-2020
jumla,29.27,82.18,61.79000000000002,71.0,52.0,1.11,NP,08-18-2020
campos belos,-13.04,-46.77,78.15200000000007,28.0,92.0,2.28,BR,08-18-2020
vila,42.03,-8.16,69.99800000000002,93.0,75.0,6.2,PT,08-18-2020
sorkjosen,69.8,20.93,49.604000000000056,77.0,99.0,2.51,NO,08-18-2020
xai-xai,-25.05,33.64,67.71200000000006,83.0,25.0,10.38,MZ,08-18-2020
coquimbo,-29.95,-71.34,51.8,76.0,75.0,3.1,CL,08-18-2020
kodiak,57.79,-152.41,60.8,72.0,20.0,4.1,US,08-18-2020
nalut,30.33,10.85,88.21400000000003,15.0,29.0,4.68,LY,08-18-2020
arraial do cabo,-22.97,-42.03,73.4,88.0,87.0,7.2,BR,08-18-2020
saint george,37.1,-113.58,111.00200000000008,9.0,1.0,3.6,US,08-18-2020
tuktoyaktuk,69.45,-133.04,62.6,55.0,20.0,5.7,CA,08-18-2020
moron,-34.65,-58.62,60.008,32.0,0.0,3.13,AR,08-18-2020
nanortalik,60.14,-45.24,49.78399999999999,65.0,0.0,2.94,GL,08-18-2020
tual,-5.67,132.75,77.99000000000002,83.0,80.0,5.3,ID,08-18-2020
mangrol,21.12,70.12,81.28399999999999,85.0,100.0,7.55,IN,08-18-2020
kupang,-10.17,123.58,75.2,83.0,20.0,2.1,ID,08-18-2020
sovetskiy,61.36,63.58,53.564000000000036,95.0,86.0,2.89,RU,08-18-2020
selma,36.57,-119.61,102.99199999999999,35.0,1.0,2.6,US,08-18-2020
kloulklubed,7.04,134.26,77.0,94.0,75.0,3.9,PW,08-18-2020
raudeberg,61.99,5.14,64.00400000000005,86.0,0.0,1.08,NO,08-18-2020
neuquen,-38.95,-68.06,48.2,34.0,75.0,4.6,AR,08-18-2020
dori,14.04,-0.03,79.34000000000002,75.0,57.0,6.15,BF,08-18-2020
srikakulam,18.3,83.9,80.11400000000003,80.0,100.0,2.53,IN,08-18-2020
bredasdorp,-34.53,20.04,48.2,76.0,70.0,2.6,ZA,08-18-2020
murighiol,45.03,29.17,66.00200000000008,88.0,30.0,0.5,RO,08-18-2020
zabkowice slaskie,50.59,16.81,62.00600000000003,68.0,100.0,1.92,PL,08-18-2020
hovd,48.01,91.64,62.852000000000075,42.0,96.0,2.18,MN,08-18-2020
kemin,42.78,75.69,58.478000000000065,62.0,46.0,1.09,KG,08-18-2020
batagay-alyta,67.8,130.41,45.96800000000009,80.0,100.0,6.46,RU,08-18-2020
jiazi,22.88,116.07,80.88800000000005,86.0,92.0,5.42,CN,08-18-2020
deputatskiy,69.3,139.9,39.47000000000006,97.0,100.0,1.8,RU,08-18-2020
bowen,-20.02,148.23,75.00200000000008,88.0,16.0,1.5,AU,08-18-2020
pevek,69.7,170.31,41.432000000000016,81.0,84.0,4.65,RU,08-18-2020
beipiao,41.79,120.78,64.5260000000001,93.0,99.0,1.95,CN,08-18-2020
klaksvik,62.23,-6.59,50.0,87.0,100.0,0.5,FO,08-18-2020
severo-kurilsk,50.68,156.12,51.74600000000005,87.0,97.0,5.9,RU,08-18-2020
yumen,40.28,97.2,62.47400000000001,28.0,2.0,4.1,CN,08-18-2020
dengfeng,34.46,113.03,69.49400000000007,86.0,100.0,2.66,CN,08-18-2020
tocopilla,-22.09,-70.2,56.33600000000007,68.0,6.0,4.06,CL,08-18-2020
broken hill,-31.95,141.43,51.8,66.0,40.0,9.8,AU,08-18-2020
bac lieu,9.29,105.72,79.77200000000003,83.0,100.0,3.23,VN,08-18-2020
atambua,-9.11,124.89,71.87000000000006,71.0,96.0,1.39,ID,08-18-2020
naifaru,5.44,73.37,81.96800000000009,69.0,20.0,2.41,MV,08-18-2020
tiksi,71.69,128.87,39.30800000000001,78.0,95.0,5.84,RU,08-18-2020
chuy,-33.7,-53.46,51.83600000000007,92.0,0.0,1.45,UY,08-18-2020
sao joao da barra,-21.64,-41.05,74.22800000000007,77.0,29.0,10.89,BR,08-18-2020
byron bay,-28.65,153.62,69.00800000000001,59.0,53.0,3.1,AU,08-18-2020
geraldton,-28.77,114.6,48.2,93.0,58.0,4.1,AU,08-18-2020
sur,22.57,59.53,84.83000000000004,67.0,91.0,4.82,OM,08-18-2020
sao felix do xingu,-6.64,-51.99,82.32800000000006,42.0,3.0,0.95,BR,08-18-2020
pisco,-13.7,-76.22,64.4,77.0,37.0,8.2,PE,08-18-2020
codrington,-38.27,141.97,48.452000000000076,92.0,100.0,3.35,AU,08-18-2020
jamestown,42.1,-79.24,69.8,56.0,1.0,4.6,US,08-18-2020
alofi,-19.06,-169.92,77.0,88.0,75.0,6.7,NU,08-18-2020
kingori,-3.28,36.98,68.0,72.0,75.0,2.6,TZ,08-18-2020
sobolevo,54.43,31.9,59.32400000000001,82.0,99.0,3.75,RU,08-18-2020
nyurba,63.28,118.33,54.95,62.0,46.0,1.42,RU,08-18-2020
santa maria,-29.68,-53.81,66.2,88.0,75.0,1.0,BR,08-18-2020
fram,-26.98,-55.88,73.4,73.0,60.0,1.0,PY,08-18-2020
marsabit,2.33,37.99,62.88800000000005,92.0,65.0,8.17,KE,08-18-2020
airai,-8.93,125.41,60.602000000000075,59.0,78.0,0.96,TL,08-18-2020
sioux lookout,50.1,-91.92,64.4,77.0,75.0,1.5,CA,08-18-2020
sibolga,1.74,98.78,77.108,76.0,98.0,1.37,ID,08-18-2020
victoria,22.29,114.16,80.6,78.0,90.0,14.4,HK,08-18-2020
constitucion,-35.33,-72.42,49.02800000000006,74.0,97.0,4.56,CL,08-18-2020
asifabad,19.37,79.28,76.60400000000006,88.0,100.0,4.03,IN,08-18-2020
dingtao,35.07,115.56,73.88600000000007,96.0,96.0,3.5,CN,08-18-2020
laguna,38.42,-121.42,107.00600000000003,20.0,1.0,1.5,US,08-18-2020
tsaratanana,-16.78,47.65,62.6,61.0,1.0,5.26,MG,08-18-2020
vila franca do campo,37.72,-25.43,75.2,94.0,75.0,10.8,PT,08-18-2020
aguimes,27.91,-15.45,73.4,73.0,20.0,11.8,ES,08-18-2020
morondava,-20.28,44.28,68.46800000000009,73.0,0.0,3.18,MG,08-18-2020
rio grande,-32.03,-52.1,53.99600000000005,95.0,77.0,1.07,BR,08-18-2020
saint anthony,45.02,-93.22,80.99600000000005,41.0,1.0,2.1,US,08-18-2020
yuty,-26.6,-56.25,61.268000000000086,97.0,45.0,0.69,PY,08-18-2020
nanga eboko,4.68,12.37,69.65600000000003,96.0,79.0,1.84,CM,08-18-2020
porangatu,-13.44,-49.15,82.54400000000007,28.0,77.0,2.25,BR,08-18-2020
katsuura,35.13,140.3,84.00200000000008,74.0,98.0,1.34,JP,08-18-2020
huilong,31.81,121.66,80.99600000000005,92.0,0.0,2.24,CN,08-18-2020
rey bouba,8.67,14.18,74.69600000000005,93.0,100.0,0.36,CM,08-18-2020
nador,35.17,-2.93,77.0,65.0,0.0,1.07,MA,08-18-2020
tyukhtet,56.54,89.3,60.29600000000005,87.0,100.0,3.11,RU,08-18-2020
port hawkesbury,45.62,-61.35,64.00400000000005,88.0,75.0,5.7,CA,08-18-2020
bethanien,-26.5,17.16,37.92200000000004,68.0,10.0,2.04,NA,08-18-2020
tukrah,32.53,20.58,75.39800000000002,86.0,0.0,0.86,LY,08-18-2020
karasburg,-28.02,18.75,39.452000000000076,70.0,42.0,2.54,NA,08-18-2020
palmer,42.16,-72.33,82.4,32.0,40.0,4.6,US,08-18-2020
lapua,62.97,23.01,55.99400000000007,82.0,7.0,0.45,FI,08-18-2020
acapulco,16.86,-99.89,86.0,74.0,40.0,4.1,MX,08-18-2020
aljezur,37.32,-8.8,69.99800000000002,81.0,0.0,3.89,PT,08-18-2020
port lincoln,-34.73,135.87,54.23000000000004,70.0,63.0,10.1,AU,08-18-2020
aklavik,68.22,-135.01,62.6,59.0,40.0,4.6,CA,08-18-2020
locri,38.24,16.26,78.99800000000002,74.0,4.0,4.1,IT,08-18-2020
golspie,57.97,-3.98,57.00200000000008,96.0,8.0,1.74,GB,08-18-2020
urusha,54.05,122.9,52.30400000000005,62.0,0.0,1.88,RU,08-18-2020
ukiah,39.15,-123.21,102.2,11.0,1.0,7.2,US,08-18-2020
arys,42.43,68.8,64.4,52.0,0.0,4.0,KZ,08-18-2020
odienne,9.51,-7.57,72.75200000000008,94.0,1.0,1.5,CI,08-18-2020
plymouth,41.83,-70.83,80.6,47.0,75.0,3.6,US,08-18-2020
ilulissat,69.22,-51.1,53.6,40.0,96.0,1.5,GL,08-18-2020
mathathane,-22.27,28.75,62.20400000000005,30.0,0.0,8.13,BW,08-18-2020
wanxian,30.8,108.39,73.07600000000009,84.0,100.0,1.12,CN,08-18-2020
marigot,18.07,-63.08,86.0,66.0,20.0,5.1,MF,08-18-2020
spencer,43.14,-95.14,84.2,35.0,1.0,2.1,US,08-18-2020
nangal,31.37,76.38,79.50200000000008,84.0,10.0,0.8,IN,08-18-2020
arinos,-15.92,-46.11,76.15400000000005,38.0,4.0,1.91,BR,08-18-2020
petropavlovsk-kamchatskiy,53.05,158.65,55.4,93.0,90.0,4.0,RU,08-18-2020
kodinsk,58.69,99.18,54.91400000000003,74.0,91.0,1.13,RU,08-18-2020
abnub,27.27,31.15,82.4,45.0,0.0,4.1,EG,08-18-2020
santiago,-33.46,-70.65,50.0,66.0,90.0,1.5,CL,08-18-2020
oranjemund,-28.55,16.43,53.69000000000002,64.0,83.0,8.24,NA,08-18-2020
amazar,53.86,120.88,53.6,59.0,0.0,0.96,RU,08-18-2020
prachuap khiri khan,11.82,99.78,77.25200000000008,84.0,86.0,1.97,TH,08-18-2020
mezhdurechensk,53.69,88.06,58.964000000000034,94.0,100.0,1.62,RU,08-18-2020
taldan,53.67,124.8,53.42000000000006,55.0,0.0,4.45,RU,08-18-2020
plettenberg bay,-34.05,23.37,51.458000000000006,76.0,94.0,7.25,ZA,08-18-2020
mount gambier,-37.83,140.77,46.4,100.0,75.0,4.6,AU,08-18-2020
umm kaddadah,13.6,26.69,81.734,60.0,99.0,2.63,SD,08-18-2020
kayes,14.0,-11.0,77.73800000000004,90.0,100.0,3.56,ML,08-18-2020
gravdal,68.12,13.5,52.44800000000002,80.0,100.0,3.35,NO,08-18-2020
fort-shevchenko,44.51,50.26,73.68800000000005,69.0,0.0,3.79,KZ,08-18-2020
artesia,33.87,-118.08,107.00600000000003,32.0,1.0,3.1,US,08-18-2020
sangmelima,2.93,11.98,69.36800000000008,96.0,57.0,2.2,CM,08-18-2020
kasempa,-13.46,25.83,60.332000000000015,33.0,1.0,1.1,ZM,08-18-2020
dingle,11.0,122.67,77.32400000000001,88.0,100.0,1.09,PH,08-18-2020
changji,44.02,87.32,69.8,64.0,99.0,2.0,CN,08-18-2020
khorixas,-20.37,14.97,50.791999999999994,35.0,0.0,3.84,NA,08-18-2020
fairbanks,64.84,-147.72,71.6,35.0,1.0,0.66,US,08-18-2020
turukhansk,65.82,87.98,56.26400000000003,59.0,19.0,5.09,RU,08-18-2020
bilokurakyne,49.53,38.73,67.83800000000005,65.0,52.0,0.06,UA,08-18-2020
yerofey pavlovich,53.97,121.97,52.7,61.0,0.0,1.29,RU,08-18-2020
molteno,-31.4,26.36,26.456000000000028,97.0,56.0,4.92,ZA,08-18-2020
kushima,31.46,131.23,82.4,83.0,75.0,2.6,JP,08-18-2020
mahebourg,-20.41,57.7,71.6,73.0,40.0,6.7,MU,08-18-2020
nizhnevartovsk,60.93,76.55,57.2,100.0,75.0,3.0,RU,08-18-2020
tabuk,17.42,121.44,77.36000000000008,82.0,79.0,0.6,PH,08-18-2020
provideniya,64.38,-173.3,53.6,66.0,90.0,4.0,RU,08-18-2020
itaituba,-4.28,-55.98,88.23200000000001,37.0,53.0,0.97,BR,08-18-2020
ushtobe,45.25,77.98,62.47400000000001,42.0,0.0,2.93,KZ,08-18-2020
edgewater,28.99,-80.9,73.99400000000007,100.0,40.0,2.1,US,08-18-2020
beringovskiy,63.05,179.32,53.924000000000014,62.0,11.0,5.21,RU,08-18-2020
hammerfest,70.66,23.68,48.2,100.0,75.0,4.1,NO,08-18-2020
dublin,37.7,-121.94,105.00800000000001,21.0,1.0,6.7,US,08-18-2020
parati,-23.22,-44.71,66.2,82.0,20.0,0.5,BR,08-18-2020
sabha,27.04,14.43,88.30400000000006,20.0,0.0,4.2,LY,08-18-2020
brandon,27.94,-82.29,82.99400000000007,83.0,1.0,3.08,US,08-18-2020
cayenne,4.93,-52.33,80.6,78.0,0.0,1.5,GF,08-18-2020
xam nua,20.42,104.04,67.1,95.0,100.0,0.17,LA,08-18-2020
lata,40.16,-8.33,69.00800000000001,94.0,75.0,1.5,PT,08-18-2020
nikel,69.41,30.22,50.0,87.0,75.0,6.7,RU,08-18-2020
stanislav,46.57,32.15,71.69000000000003,50.0,0.0,2.79,UA,08-18-2020
bandarbeyla,9.49,50.81,77.37800000000007,77.0,83.0,13.52,SO,08-18-2020
camacha,33.08,-16.33,71.6,83.0,20.0,3.1,PT,08-18-2020
san jose,37.34,-121.89,100.99400000000007,22.0,75.0,6.2,US,08-18-2020
kaitangata,-46.28,169.85,53.00600000000003,70.0,100.0,0.88,NZ,08-18-2020
praya,14.92,-23.51,82.4,78.0,75.0,2.1,CV,08-18-2020
mount pleasant,32.79,-79.86,78.00800000000001,94.0,75.0,2.1,US,08-18-2020
hervey bay,-25.3,152.85,73.00400000000005,68.0,0.0,4.1,AU,08-18-2020
maningrida,-12.07,134.27,71.67200000000004,67.0,89.0,1.81,AU,08-18-2020
faya,18.39,42.45,73.4,64.0,70.0,2.6,SA,08-18-2020
leningradskiy,69.38,178.42,50.378000000000064,49.0,5.0,2.48,RU,08-18-2020
homer,59.64,-151.55,60.8,72.0,75.0,6.2,US,08-18-2020
qumaym,32.57,35.73,68.61200000000005,89.0,0.0,1.69,JO,08-18-2020
marawi,8.0,124.29,73.99400000000007,93.0,94.0,2.68,PH,08-18-2020
abu dhabi,24.47,54.37,93.2,67.0,9.0,1.5,AE,08-18-2020
aktau,43.65,51.2,66.2,88.0,0.0,1.0,KZ,08-18-2020
kijang,35.24,129.21,78.8,88.0,5.0,1.5,KR,08-18-2020
bathsheba,13.22,-59.52,80.6,83.0,75.0,8.2,BB,08-18-2020
hambantota,6.12,81.12,79.016,82.0,83.0,6.55,LK,08-18-2020
vao,-22.67,167.48,68.558,60.0,41.0,3.66,NC,08-18-2020
portland,45.52,-122.68,86.0,44.0,20.0,3.6,US,08-18-2020
ayagoz,47.97,80.44,58.24400000000007,69.0,1.0,5.39,KZ,08-18-2020
pa sang,18.53,98.94,73.4,94.0,20.0,0.58,TH,08-18-2020
lerwick,60.15,-1.15,57.2,100.0,92.0,2.6,GB,08-18-2020
smithers,54.78,-127.17,66.2,63.0,75.0,1.0,CA,08-18-2020
salinopolis,-0.61,-47.36,80.16800000000009,79.0,30.0,6.44,BR,08-18-2020
daru,-9.08,143.21,77.21600000000001,68.0,0.0,4.54,PG,08-18-2020
ternate,0.8,127.4,80.36600000000001,77.0,100.0,4.32,ID,08-18-2020
dubbo,-32.25,148.62,51.8,76.0,75.0,5.1,AU,08-18-2020
itarema,-2.92,-39.92,78.27800000000006,73.0,42.0,7.74,BR,08-18-2020
igarka,67.47,86.58,54.391999999999996,64.0,57.0,3.58,RU,08-18-2020
cururupu,-1.83,-44.87,75.7760000000001,82.0,23.0,2.45,BR,08-18-2020
hofn,64.25,-15.21,49.820000000000064,85.0,94.0,8.1,IS,08-18-2020
pryazha,61.69,33.62,51.8,87.0,50.0,1.0,RU,08-18-2020
omsukchan,62.53,155.8,49.820000000000064,68.0,100.0,2.51,RU,08-18-2020
huangzhou,30.45,114.8,84.2,83.0,33.0,3.0,CN,08-18-2020
jalu,29.03,21.55,81.21200000000006,43.0,0.0,4.86,LY,08-18-2020
pilar,-9.6,-35.96,71.6,88.0,40.0,3.1,BR,08-18-2020
ouegoa,-20.35,164.43,73.11200000000005,58.0,25.0,0.91,NC,08-18-2020
cuamba,-14.8,36.54,68.73800000000004,44.0,43.0,1.59,MZ,08-18-2020
le port,-20.94,55.29,69.8,77.0,75.0,7.7,RE,08-18-2020
balkhash,46.84,74.98,66.16400000000003,45.0,0.0,2.08,KZ,08-18-2020
lukovetskiy,64.3,41.92,35.6,100.0,0.0,2.04,RU,08-18-2020
mallapuram,11.97,78.25,74.174,83.0,98.0,1.82,IN,08-18-2020
kiama,-34.68,150.87,62.99600000000005,51.0,0.0,2.24,AU,08-18-2020
borovskoy,53.8,64.15,48.34400000000007,90.0,21.0,6.09,KZ,08-18-2020
palana,59.12,159.97,51.51200000000006,98.0,100.0,1.4,RU,08-18-2020
goba,7.02,39.98,51.54800000000002,84.0,100.0,2.15,ET,08-18-2020
watsa,3.04,29.54,63.42800000000007,99.0,99.0,0.88,CD,08-18-2020
the valley,18.22,-63.06,86.0,66.0,20.0,5.1,AI,08-18-2020
reconquista,-29.15,-59.65,60.458000000000006,44.0,0.0,3.01,AR,08-18-2020
shimoda,34.67,138.95,78.99800000000002,84.0,78.0,3.55,JP,08-18-2020
barranca,-10.75,-77.77,60.29600000000005,82.0,12.0,5.05,PE,08-18-2020
suntar,62.14,117.63,54.104000000000056,60.0,35.0,1.69,RU,08-18-2020
miraflores,19.22,-98.81,75.2,36.0,75.0,4.1,MX,08-18-2020
ceres,37.59,-120.96,105.8,20.0,1.0,6.7,US,08-18-2020
gafanha da encarnacao,40.62,-8.73,69.00800000000001,98.0,32.0,3.31,PT,08-18-2020
luderitz,-26.65,15.16,55.32800000000007,51.0,0.0,8.97,NA,08-18-2020
pacific grove,36.62,-121.92,91.99400000000007,47.0,1.0,3.1,US,08-18-2020
giyani,-23.3,30.72,65.78600000000007,44.0,0.0,1.21,ZA,08-18-2020
dicabisagan,17.08,122.42,81.392,74.0,99.0,2.11,PH,08-18-2020
huarmey,-10.07,-78.15,62.63600000000007,77.0,7.0,5.35,PE,08-18-2020
tondano,1.3,124.91,75.2,78.0,20.0,0.5,ID,08-18-2020
goderich,43.75,-81.72,69.99800000000002,66.0,0.0,7.16,CA,08-18-2020
buraydah,26.33,43.98,87.8,19.0,0.0,3.6,SA,08-18-2020
yerbogachen,61.28,108.01,51.998000000000026,60.0,13.0,1.22,RU,08-18-2020
mondolfo,43.75,13.1,71.99600000000005,88.0,0.0,2.1,IT,08-18-2020
chaman,30.92,66.45,80.74400000000007,18.0,7.0,4.0,PK,08-18-2020
baykit,61.67,96.37,53.582000000000015,68.0,74.0,1.54,RU,08-18-2020
vanimo,-2.67,141.3,81.01400000000004,74.0,62.0,2.54,PG,08-18-2020
talsi,57.25,22.58,55.4,87.0,78.0,1.72,LV,08-18-2020
hirara,24.8,125.28,82.4,94.0,75.0,1.5,JP,08-18-2020
villa rica,33.73,-84.92,87.00800000000001,40.0,1.0,2.1,US,08-18-2020
honningsvag,70.98,25.97,48.2,87.0,40.0,3.6,NO,08-18-2020
siva,29.2,25.52,78.76400000000004,55.0,0.0,2.71,EG,08-18-2020
smidovich,48.6,133.82,61.79000000000002,84.0,72.0,4.32,RU,08-18-2020
ampanihy,-24.7,44.75,67.80200000000008,52.0,2.0,4.86,MG,08-18-2020
konevo,62.12,39.32,40.04600000000005,91.0,0.0,1.28,RU,08-18-2020
pahrump,36.21,-115.98,111.99199999999999,11.0,20.0,1.34,US,08-18-2020
ulladulla,-35.35,150.47,55.99400000000007,76.0,40.0,9.3,AU,08-18-2020
vestmannaeyjar,63.44,-20.27,52.57400000000001,88.0,58.0,8.87,IS,08-18-2020
peniche,39.36,-9.38,69.00800000000001,93.0,5.0,2.68,PT,08-18-2020
george town,5.41,100.34,80.6,94.0,20.0,1.0,MY,08-18-2020
odesskoye,54.21,72.97,56.80400000000005,80.0,100.0,4.82,RU,08-18-2020
tuatapere,-46.13,167.68,53.42000000000006,72.0,100.0,2.83,NZ,08-18-2020
amarante do maranhao,-5.57,-46.74,82.11200000000005,36.0,6.0,1.73,BR,08-18-2020
bundaberg,-24.85,152.35,73.00400000000005,68.0,0.0,4.1,AU,08-18-2020
dergachi,51.23,48.77,55.76000000000008,59.0,0.0,1.63,RU,08-18-2020
westport,41.14,-73.36,82.4,51.0,1.0,5.1,US,08-18-2020
kungurtug,50.6,97.52,49.748000000000026,79.0,23.0,1.13,RU,08-18-2020
thunder bay,48.4,-89.32,66.2,63.0,90.0,3.1,CA,08-18-2020
pareora,-44.49,171.21,48.992,90.0,98.0,2.49,NZ,08-18-2020
aleksandrov gay,50.15,48.57,59.73800000000004,47.0,0.0,2.53,RU,08-18-2020
kaoma,-14.78,24.8,60.96200000000006,33.0,0.0,1.94,ZM,08-18-2020
kostomuksha,64.57,30.58,47.31800000000008,89.0,29.0,0.96,RU,08-18-2020
werda,-25.27,23.28,35.63600000000007,64.0,0.0,4.12,BW,08-18-2020
dhidhdhoo,6.88,73.1,81.96800000000009,73.0,94.0,3.63,MV,08-18-2020
inhambane,-23.86,35.38,69.27800000000006,87.0,0.0,5.82,MZ,08-18-2020
san ramon,37.78,-121.98,104.0,21.0,1.0,6.7,US,08-18-2020
concepcion del oro,24.63,-101.42,68.64800000000002,44.0,97.0,3.43,MX,08-18-2020
ixtapa,20.7,-105.2,82.4,78.0,90.0,1.0,MX,08-18-2020
saint-joseph,-21.37,55.62,64.4,77.0,20.0,2.1,RE,08-18-2020
la ronge,55.1,-105.28,78.8,61.0,20.0,5.1,CA,08-18-2020
ferrol,43.48,-8.24,71.99600000000005,77.0,75.0,7.2,ES,08-18-2020
altamont,42.21,-121.74,95.0,24.0,1.0,4.6,US,08-18-2020
balkanabat,39.51,54.37,78.42200000000004,24.0,0.0,1.99,TM,08-18-2020
chokurdakh,70.63,147.92,38.408,83.0,88.0,4.14,RU,08-18-2020
ashland,40.82,-82.27,73.4,46.0,20.0,6.7,US,08-18-2020
samfya,-11.36,29.56,60.854000000000056,44.0,3.0,1.09,ZM,08-18-2020
joshimath,30.57,79.57,68.81000000000009,56.0,87.0,0.24,IN,08-18-2020
aswan,24.09,32.91,88.10600000000002,18.0,0.0,3.83,EG,08-18-2020
requena,39.49,-1.1,68.0,71.0,100.0,1.13,ES,08-18-2020
hamadan,34.8,48.51,71.6,37.0,0.0,4.1,IR,08-18-2020
inta,66.03,60.17,53.258,87.0,85.0,5.32,RU,08-18-2020
nizhniy kuranakh,58.84,125.49,50.162000000000056,74.0,64.0,2.22,RU,08-18-2020
susaki,33.37,133.28,82.4,78.0,99.0,4.1,JP,08-18-2020
soyo,-6.13,12.37,71.90600000000003,84.0,50.0,4.08,AO,08-18-2020
kampot,10.62,104.18,82.4,74.0,20.0,2.6,KH,08-18-2020
denpasar,-8.65,115.22,77.0,100.0,40.0,2.6,ID,08-18-2020
palma,39.57,2.65,78.99800000000002,74.0,97.0,1.5,ES,08-18-2020
acajutla,13.59,-89.83,91.4,46.0,40.0,1.5,SV,08-18-2020
kalofer,42.62,24.98,71.6,53.0,75.0,3.1,BG,08-18-2020
tarata,-17.62,-66.02,73.4,31.0,75.0,5.1,BO,08-18-2020
kirkwall,58.98,-2.96,57.2,100.0,1.0,1.5,GB,08-18-2020
stawell,-37.05,142.77,45.30200000000008,95.0,100.0,4.38,AU,08-18-2020
porbandar,21.64,69.61,81.77000000000007,85.0,99.0,7.16,IN,08-18-2020
santiago del estero,-27.8,-64.26,65.642,33.0,0.0,2.15,AR,08-18-2020
iisalmi,63.56,27.19,53.6,87.0,14.0,1.5,FI,08-18-2020
meulaboh,4.14,96.13,77.684,83.0,100.0,1.8,ID,08-18-2020
vardo,70.37,31.11,50.0,87.0,91.0,8.2,NO,08-18-2020
esperance,-33.87,121.9,44.6,100.0,40.0,5.7,AU,08-18-2020
tatvan,38.51,42.28,60.63800000000005,70.0,0.0,1.93,TR,08-18-2020
sturgis,41.8,-85.42,75.2,40.0,40.0,3.1,US,08-18-2020
ambon,-3.7,128.18,73.99400000000007,17.0,58.0,3.9,ID,08-18-2020
ligayan,4.65,119.47,83.69600000000005,67.0,97.0,0.85,PH,08-18-2020
yarmouth,41.71,-70.23,77.0,57.0,1.0,7.2,US,08-18-2020
andrews,32.32,-102.55,93.2,21.0,75.0,5.1,US,08-18-2020
takaungu,-3.68,39.86,75.14600000000004,80.0,100.0,5.74,KE,08-18-2020
lufilufi,-13.87,-171.6,77.0,100.0,30.0,5.81,WS,08-18-2020
dawlatabad,36.41,64.91,64.68800000000005,33.0,0.0,1.07,AF,08-18-2020
yashalta,46.34,42.28,73.31000000000009,43.0,74.0,0.89,RU,08-18-2020
belle fourche,44.67,-103.85,89.99600000000005,21.0,1.0,6.2,US,08-18-2020
rovaniemi,66.5,25.72,48.2,81.0,33.0,3.1,FI,08-18-2020
dustlik,40.52,68.04,60.96200000000006,35.0,0.0,0.78,UZ,08-18-2020
riyadh,24.69,46.72,82.4,15.0,0.0,3.1,SA,08-18-2020
gubkinskiy,64.43,76.5,60.13399999999999,71.0,80.0,6.05,RU,08-18-2020
santo tomas,14.11,121.14,80.00600000000003,94.0,90.0,0.24,PH,08-18-2020
ciudad bolivar,8.12,-63.55,81.32000000000006,73.0,90.0,2.43,VE,08-18-2020
pouembout,-21.13,164.9,73.94000000000003,50.0,12.0,0.63,NC,08-18-2020
canchungo,12.07,-16.03,80.6,94.0,40.0,3.6,GW,08-18-2020
ghanzi,-21.57,21.78,41.03600000000007,63.0,0.0,4.51,BW,08-18-2020
baft,29.23,56.61,71.36600000000001,41.0,71.0,1.99,IR,08-18-2020
bani,18.28,-70.33,87.00800000000001,75.0,0.0,1.79,DO,08-18-2020
belaya gora,68.53,146.42,49.11800000000009,68.0,100.0,2.06,RU,08-18-2020
chapleau,47.84,-83.4,60.8,63.0,75.0,2.1,CA,08-18-2020
namibe,-15.2,12.15,60.92600000000009,79.0,67.0,1.46,AO,08-18-2020
tamandare,-8.76,-35.1,74.066,80.0,19.0,4.97,BR,08-18-2020
gagnoa,6.13,-5.94,70.37600000000009,92.0,82.0,2.18,CI,08-18-2020
duluth,46.78,-92.11,78.8,41.0,1.0,3.1,US,08-18-2020
aizkraukle,56.6,25.26,55.004000000000055,85.0,94.0,3.04,LV,08-18-2020
moerai,-22.43,-151.33,70.30400000000006,77.0,100.0,11.94,PF,08-18-2020
tarauaca,-8.16,-70.77,83.91200000000006,58.0,35.0,1.14,BR,08-18-2020
bonnyville,54.27,-110.73,87.8,33.0,20.0,2.6,CA,08-18-2020
kaeo,-35.1,173.78,60.008,58.0,65.0,0.45,NZ,08-18-2020
bilma,18.69,12.92,94.11800000000008,16.0,53.0,1.15,NE,08-18-2020
san cristobal,7.77,-72.22,82.4,69.0,40.0,5.1,VE,08-18-2020
brae,60.4,-1.35,57.2,100.0,99.0,2.6,GB,08-18-2020
purpe,64.48,76.69,60.29600000000005,71.0,83.0,5.69,RU,08-18-2020
adrar,20.5,-10.07,101.192,11.0,0.0,4.7,MR,08-18-2020
aurdal,60.92,9.42,51.008,83.0,7.0,1.11,NO,08-18-2020
joao camara,-5.54,-35.82,75.2,88.0,40.0,3.1,BR,08-18-2020
dzhebariki-khaya,62.22,135.8,54.5,64.0,68.0,1.27,RU,08-18-2020
dickinson,29.46,-95.05,95.0,44.0,20.0,3.1,US,08-18-2020
viedma,-40.81,-63.0,42.008,63.0,51.0,2.68,AR,08-18-2020
kachug,53.96,105.88,51.08000000000004,68.0,4.0,1.03,RU,08-18-2020
san carlos,9.66,-68.58,74.93000000000004,95.0,99.0,0.68,VE,08-18-2020
buala,-8.14,159.59,84.14600000000004,70.0,97.0,2.07,SB,08-18-2020
richards bay,-28.78,32.04,58.38800000000005,51.0,61.0,3.39,ZA,08-18-2020
banjar,-8.19,114.97,77.0,100.0,40.0,3.6,ID,08-18-2020
havre-saint-pierre,50.23,-63.6,64.4,77.0,20.0,3.6,CA,08-18-2020
solnechnyy,50.72,136.63,57.63200000000002,82.0,19.0,1.99,RU,08-18-2020
maniitsoq,65.42,-52.9,54.68000000000004,60.0,0.0,1.78,GL,08-18-2020
koslan,63.46,48.9,46.4,83.0,100.0,4.96,RU,08-18-2020
atbasar,51.8,68.33,53.06000000000008,87.0,96.0,3.14,KZ,08-18-2020
polunochnoye,60.87,60.42,47.94800000000002,99.0,43.0,2.4,RU,08-18-2020
barstow,34.9,-117.02,100.99400000000007,21.0,1.0,11.3,US,08-18-2020
nouadhibou,20.93,-17.03,71.6,83.0,0.0,8.2,MR,08-18-2020
mamallapuram,12.63,80.17,82.4,88.0,75.0,2.1,IN,08-18-2020
matagami,49.75,-77.63,50.504000000000055,92.0,99.0,3.96,CA,08-18-2020
ankang,32.68,109.02,71.042,88.0,100.0,0.6,CN,08-18-2020
makamba,-4.13,29.8,64.70600000000003,49.0,23.0,0.78,BI,08-18-2020
ilhabela,-23.78,-45.36,69.17000000000006,84.0,57.0,2.64,BR,08-18-2020
gharghoda,22.17,83.35,75.61400000000003,96.0,99.0,1.14,IN,08-18-2020
quattro castella,44.63,10.47,73.00400000000005,74.0,0.0,2.04,IT,08-18-2020
jacareacanga,-6.22,-57.75,85.55,32.0,4.0,0.93,BR,08-18-2020
usinsk,65.99,57.53,53.06000000000008,88.0,94.0,4.97,RU,08-18-2020
henties bay,-22.12,14.28,53.00600000000003,83.0,0.0,1.52,NA,08-18-2020
vanavara,60.34,102.28,51.02600000000009,62.0,68.0,2.06,RU,08-18-2020
havoysund,71.0,24.66,48.2,100.0,75.0,4.1,NO,08-18-2020
madang,-5.22,145.8,80.76200000000006,82.0,56.0,0.85,PG,08-18-2020
balikpapan,-1.27,116.83,75.2,100.0,40.0,2.6,ID,08-18-2020
syracuse,37.09,15.28,80.00600000000003,83.0,0.0,2.6,IT,08-18-2020
fort nelson,58.81,-122.7,60.8,93.0,90.0,2.1,CA,08-18-2020
canico,32.63,-16.85,71.6,73.0,20.0,1.07,PT,08-18-2020
nioki,-2.72,17.68,80.33000000000004,63.0,2.0,1.35,CD,08-18-2020
san andres,12.58,-81.7,78.8,94.0,75.0,2.6,CO,08-18-2020
vostok,46.49,135.88,57.452000000000076,100.0,94.0,0.52,RU,08-18-2020
blythe,33.61,-114.6,114.99800000000002,15.0,18.0,0.89,US,08-18-2020
puerto padre,21.2,-76.6,78.8,83.0,75.0,5.1,CU,08-18-2020
kanigoro,-8.13,112.22,70.19600000000005,87.0,80.0,2.63,ID,08-18-2020
